[
  {"name":"心中山商圈","address":"中山北路2段48巷7號","lat":25.05382,"lng":121.52043,"district":"中山區","type":"戶外封閉式吸菸區"},
  {"name":"西門町商圈1","address":"中華路、寶慶路口","lat":25.04228,"lng":121.50876,"district":"中正區","type":"戶外封閉式吸菸區"},
  {"name":"西門町商圈2","address":"中華路、峨嵋街口","lat":25.04331,"lng":121.50836,"district":"萬華區","type":"戶外封閉式吸菸區"},
  {"name":"西門町商圈3","address":"武昌街、漢中街口","lat":25.04457,"lng":121.50747,"district":"萬華區","type":"戶外封閉式吸菸區"},
  {"name":"臺北體育園區1","address":"南京東路4段10號","lat":25.05135,"lng":121.55292,"district":"松山區","type":"戶外非封閉式吸菸區"},
  {"name":"臺北體育園區2","address":"南京東路4段10號","lat":25.05128,"lng":121.55281,"district":"松山區","type":"戶外非封閉式吸菸區"},
  {"name":"臺北市政府1","address":"市府路1號","lat":25.03836,"lng":121.56394,"district":"信義區","type":"戶外非封閉式吸菸區","hours":"07:00-20:00","sub":"3樓北區露臺"},
  {"name":"臺北市政府2","address":"市府路1號","lat":25.03712,"lng":121.56447,"district":"信義區","type":"戶外非封閉式吸菸區","hours":"07:00-20:00","sub":"12樓東南區天臺"},
  {"name":"新光三越百貨A9館","address":"松壽路9號7樓","lat":25.03681,"lng":121.56634,"district":"信義區","type":"室內吸菸室","hours":"平日:11:00-21:30；例假日前一天:11:00-22:00"},
  {"name":"香堤廣場1","address":"松壽路9號","lat":25.03756,"lng":121.56646,"district":"信義區","type":"戶外非封閉式吸菸區","hours":"24小時開放","sub":"A8靠松壽廣場側"},
  {"name":"香堤廣場2","address":"松壽路9號","lat":25.03737,"lng":121.56646,"district":"信義區","type":"戶外非封閉式吸菸區","hours":"24小時開放","sub":"A9靠松壽廣場側"},
  {"name":"臺北大巨蛋園區1","address":"忠孝東路4段515號","lat":25.04149,"lng":121.56011,"district":"信義區","type":"戶外非封閉式吸菸區","hours":"24小時開放","sub":"大巨蛋靠忠孝東路側"},
  {"name":"臺北大巨蛋園區2","address":"忠孝東路4段515號","lat":25.04311,"lng":121.55864,"district":"信義區","type":"戶外非封閉式吸菸區","hours":"24小時開放","sub":"大巨蛋與商場大樓1樓間"},
  {"name":"臺北大巨蛋園區3","address":"忠孝東路4段515號","lat":25.04427,"lng":121.55801,"district":"信義區","type":"戶外非封閉式吸菸區","hours":"24小時開放","sub":"影城靠光復南路側"},
  {"name":"臺北大巨蛋園區4","address":"忠孝東路4段515號","lat":25.04481,"lng":121.55886,"district":"信義區","type":"戶外非封閉式吸菸區","hours":"24小時開放","sub":"影城靠菸廠路側"},
  {"name":"臺北大巨蛋園區5","address":"忠孝東路4段515號","lat":25.04192,"lng":121.56117,"district":"信義區","type":"戶外非封閉式吸菸區","hours":"24小時開放","sub":"辦公大樓旁"},
  {"name":"臺北大巨蛋園區6","address":"忠孝東路4段515號","lat":25.04251,"lng":121.56119,"district":"信義區","type":"戶外非封閉式吸菸區","hours":"24小時開放","sub":"旅館大樓旁"},
  {"name":"臺北市懷愛館1","address":"辛亥路3段330號","lat":25.01261,"lng":121.55302,"district":"大安區","type":"戶外非封閉式吸菸區","sub":"火化場旁"},
  {"name":"臺北市懷愛館2","address":"辛亥路3段330號","lat":25.01276,"lng":121.55315,"district":"大安區","type":"戶外非封閉式吸菸區","sub":"停棺室旁"},
  {"name":"臺北市懷愛館3","address":"辛亥路3段330號","lat":25.01351,"lng":121.55333,"district":"大安區","type":"戶外非封閉式吸菸區","sub":"景仰樓2樓露臺"}
]
