[
  {
    "name": "台北車站東二門外",
    "address": "台北市中正區北平西路3號",
    "lat": 25.0480,
    "lng": 121.5175
  },
  {
    "name": "7-ELEVEN 鑫台北門市外",
    "address": "台北市大同區承德路一段",
    "lat": 25.0484,
    "lng": 121.5093
  },
  {
    "name": "大安森林公園建國南路側",
    "address": "106台北市大安區建國南路二段",
    "lat": 25.0298,
    "lng": 121.5436
  },
  {
    "name": "信義新光三越A8與A11間",
    "address": "台北市信義區松高路",
    "lat": 25.0373,
    "lng": 121.5657
  },
  {
    "name": "中正紀念堂大孝門側",
    "address": "台北市中正區中山南路21號",
    "lat": 25.0356,
    "lng": 121.5218
  }
]
